[
    {
        "provider": "CGV",
        "code": "9999",
        "name": "CGV 강남",
        "lat": 37.5016573944824,
        "lng": 127.026391177132,
        "address": "서울 강남구 강남대로 438",
        "phone": "1544-1122"
    },
    {
        "provider": "CGV",
        "code": "9999",
        "name": "CGV 청담씨네시티",
        "lat": 37.5229506730658,
        "lng": 127.037032355109,
        "address": "서울 강남구 도산대로 323",
        "phone": "1544-1122"
    },
    {
        "provider": "CGV",
        "code": "9999",
        "name": "CGV씨네드쉐프 압구정",
        "lat": 37.5243205724172,
        "lng": 127.02927482937886,
        "address": "서울 강남구 압구정로30길 45",
        "phone": "02-3446-0541"
    },
    {
        "provider": "CGV",
        "code": "9999",
        "name": "CGV 압구정 본관",
        "lat": 37.524534257049396,
        "lng": 127.02867534167731,
        "address": "서울 강남구 논현로 848",
        "phone": "1544-1122"
    },
    {
        "provider": "CGV",
        "code": "9999",
        "name": "CGV 용산아이파크몰",
        "lat": 37.529654519920584,
        "lng": 126.96423822386969,
        "address": "서울 용산구 한강대로23길 55",
        "phone": "1544-1122"
    },
    {
        "provider": "CGV",
        "code": "9999",
        "name": "CGV 왕십리",
        "lat": 37.561783464237266,
        "lng": 127.0379502399087,
        "address": "서울 성동구 왕십리광장로 17",
        "phone": "1544-1122"
    },
    {
        "provider": "CGV",
        "code": "9999",
        "name": "CGV 강변",
        "lat": 37.5354056214823,
        "lng": 127.095655661312,
        "address": "서울 광진구 광나루로56길 85",
        "phone": "1544-1122"
    },
    {
        "provider": "LOTTE",
        "code": "9999",
        "name": "롯데시네마 도곡",
        "lat": 37.4874745085255,
        "lng": 127.047105267661,
        "address": "서울 강남구 남부순환로 2753",
        "phone": "1544-8855"
    },
    {
        "provider": "LOTTE",
        "code": "9999",
        "name": "롯데시네마 월드타워",
        "lat": 37.51391518913642,
        "lng": 127.10489198216071,
        "address": "서울 송파구 올림픽로 300",
        "phone": "1544-8855"
    },
    {
        "provider": "LOTTE",
        "code": "9999",
        "name": "롯데시네마 용산",
        "lat": 37.5329472681101,
        "lng": 126.960138744633,
        "address": "서울 용산구 청파로 74",
        "phone": "1544-8855"
    },
    {
        "provider": "LOTTE",
        "code": "9999",
        "name": "롯데시네마 에비뉴엘",
        "lat": 37.5642965417763,
        "lng": 126.981844846266,
        "address": "서울 중구 남대문로 73",
        "phone": "1544-8855"
    },
    {
        "provider": "LOTTE",
        "code": "9999",
        "name": "롯데시네마 신림",
        "lat": 37.4837168847,
        "lng": 126.930193627803,
        "address": "서울 관악구 신림로 330",
        "phone": "1544-8855"
    },
    {
        "provider": "LOTTE",
        "code": "9999",
        "name": "롯데시네마 청량리",
        "lat": 37.58044047556045,
        "lng": 127.04760869583595,
        "address": "서울 동대문구 왕산로 214",
        "phone": "1544-8855"
    },
    {
        "provider": "LOTTE",
        "code": "9999",
        "name": "롯데시네마 강동",
        "lat": 37.5366212294337,
        "lng": 127.125337370172,
        "address": "서울 강동구 천호옛길 85",
        "phone": "1544-8855"
    },
    {
        "provider": "LOTTE",
        "code": "9999",
        "name": "롯데시네마 위례",
        "lat": 37.47271112661407,
        "lng": 127.14133092828207,
        "address": "경기 성남시 수정구 위례광장로 104",
        "phone": "1544-8855"
    },
    {
        "provider": "LOTTE",
        "code": "9999",
        "name": "롯데시네마 영등포",
        "lat": 37.516265720069164,
        "lng": 126.90784590233508,
        "address": "서울 영등포구 경인로 846",
        "phone": "1544-8855"
    },
    {
        "provider": "LOTTE",
        "code": "9999",
        "name": "롯데시네마 신대방",
        "lat": 37.48653388706543,
        "lng": 126.90500256135137,
        "address": "서울 동작구 시흥대로 606",
        "phone": "1544-8855"
    },
    {
        "provider": "LOTTE",
        "code": "9999",
        "name": "롯데시네마 판교",
        "lat": 37.41315414941647,
        "lng": 127.09866396198699,
        "address": "경기 성남시 수정구 창업로 18",
        "phone": "1544-8855"
    },
    {
        "provider": "LOTTE",
        "code": "9999",
        "name": "롯데시네마 합정",
        "lat": 37.5514575965918,
        "lng": 126.913390790739,
        "address": "서울 마포구 양화로 45",
        "phone": "1544-8855"
    },
    {
        "provider": "LOTTE",
        "code": "9999",
        "name": "롯데시네마 독산",
        "lat": 37.46941422510262,
        "lng": 126.89689640341986,
        "address": "서울 금천구 시흥대로 399",
        "phone": "1544-8855"
    },
    {
        "provider": "MEGA",
        "code": "9999",
        "name": "메가박스 강남",
        "lat": 37.4979560555237,
        "lng": 127.026417015264,
        "address": "서울 서초구 서초대로77길 3",
        "phone": "1544-0070"
    },
    {
        "provider": "MEGA",
        "code": "9999",
        "name": "메가박스 센트럴",
        "lat": 37.504864280151715,
        "lng": 127.00300837909059,
        "address": "서울 서초구 신반포로 176",
        "phone": "1544-0070"
    },
    {
        "provider": "MEGA",
        "code": "9999",
        "name": "메가박스 픽쳐하우스",
        "lat": 37.5229877623683,
        "lng": 127.022024171767,
        "address": "서울 강남구 압구정로10길 9",
        "phone": "1544-0070"
    },
    {
        "provider": "MEGA",
        "code": "9999",
        "name": "메가박스 코엑스",
        "lat": 37.5127460688163,
        "lng": 127.05884035234267,
        "address": "서울 강남구 영동대로 513",
        "phone": "1544-0070"
    },
    {
        "provider": "MEGA",
        "code": "9999",
        "name": "메가박스 아트나인",
        "lat": 37.4846217805965,
        "lng": 126.98170019714026,
        "address": "서울 동작구 동작대로 89",
        "phone": "1544-0070"
    },
    {
        "provider": "MEGA",
        "code": "9999",
        "name": "메가박스 구의이스트폴",
        "lat": 37.5366109156758,
        "lng": 127.087852469231,
        "address": "서울 광진구 아차산로 402",
        "phone": "1544-0070"
    },
    {
        "provider": "MEGA",
        "code": "9999",
        "name": "메가박스 군자",
        "lat": 37.55566202563303,
        "lng": 127.07833429050628,
        "address": "서울 광진구 능동로 289",
        "phone": "1544-0070"
    },
    {
        "provider": "MEGA",
        "code": "9999",
        "name": "메가박스 동대문",
        "lat": 37.5667763337993,
        "lng": 127.00759281850102,
        "address": "서울 중구 장충단로 247",
        "phone": "1544-0070"
    },
    {
        "provider": "MEGA",
        "code": "9999",
        "name": "메가박스 송파파크하비오",
        "lat": 37.4820976521034,
        "lng": 127.123830694097,
        "address": "서울 송파구 송파대로 111",
        "phone": "1544-0070"
    },
    {
        "provider": "MEGA",
        "code": "9999",
        "name": "메가박스 강동점",
        "lat": 37.528476277802625,
        "lng": 127.12524907326281,
        "address": "서울 강동구 성내로 48",
        "phone": "1544-0070"
    },
    {
        "provider": "MEGA",
        "code": "9999",
        "name": "메가박스 신촌",
        "lat": 37.559570517501,
        "lng": 126.94187662155964,
        "address": "서울 서대문구 신촌역로 30",
        "phone": "1544-0070"
    },
    {
        "provider": "MEGA",
        "code": "9999",
        "name": "메가박스 홍대",
        "lat": 37.55604249793133,
        "lng": 126.92204557664462,
        "address": "서울 마포구 양화로 147",
        "phone": "1544-0070"
    },
    {
        "provider": "MEGA",
        "code": "9999",
        "name": "메가박스 상봉",
        "lat": 37.593039388039465,
        "lng": 127.07477725968386,
        "address": "서울 중랑구 망우로30길 3",
        "phone": "1544-0070"
    },
    {
        "provider": "MEGA",
        "code": "9999",
        "name": "메가박스 성남모란",
        "lat": 37.4313138278264,
        "lng": 127.129779320066,
        "address": "경기 성남시 중원구 성남대로 1136",
        "phone": "1544-0070"
    },
    {
        "provider": "MEGA",
        "code": "9999",
        "name": "메가박스 광명소하",
        "lat": 37.44589495847006,
        "lng": 126.89368196485685,
        "address": "경기 광명시 소하로 190",
        "phone": "1544-0070"
    },
    {
        "provider": "MEGA",
        "code": "9999",
        "name": "메가박스 더부티크 목동현대백화점",
        "lat": 37.52695179034791,
        "lng": 126.87560987143218,
        "address": "서울 양천구 목동동로 257",
        "phone": "1544-0070"
    },
    {
        "provider": "MEGA",
        "code": "9999",
        "name": "메가박스 목동",
        "lat": 37.5288308612468,
        "lng": 126.876069465384,
        "address": "서울 양천구 목동동로 309",
        "phone": "1544-0070"
    },
    {
        "provider": "MEGA",
        "code": "9999",
        "name": "메가박스 상암월드컵경기장점",
        "lat": 37.569187914348674,
        "lng": 126.89821583795988,
        "address": "서울 마포구 월드컵로 240",
        "phone": "1544-0070"
    },
    {
        "provider": "MEGA",
        "code": "9999",
        "name": "메가박스 분당",
        "lat": 37.3856003125001,
        "lng": 127.122447797715,
        "address": "경기 성남시 분당구 황새울로 332",
        "phone": "1544-0070"
    },
    {
        "provider": "MEGA",
        "code": "9999",
        "name": "메가박스 광명AK플라자",
        "lat": 37.4188721840159,
        "lng": 126.88277363142022,
        "address": "경기 광명시 양지로 17",
        "phone": "1544-0070"
    },
    {
        "provider": "MEGA",
        "code": "9999",
        "name": "메가박스 금정AK플라자",
        "lat": 37.37276949213815,
        "lng": 126.944194351075,
        "address": "경기 군포시 엘에스로 143",
        "phone": "1544-0070"
    },
    {
        "provider": "MEGA",
        "code": "9999",
        "name": "메가박스 미사강변",
        "lat": 37.56623221200717,
        "lng": 127.18971712137547,
        "address": "경기 하남시 미사강변중앙로 218",
        "phone": "1544-0070"
    },
    {
        "provider": "MEGA",
        "code": "9999",
        "name": "메가박스 남양주현대아울렛 스페이스원",
        "lat": 37.61672017434639,
        "lng": 127.15099507616142,
        "address": "경기 남양주시 다산순환로 50",
        "phone": "1544-0070"
    },
    {
        "provider": "MEGA",
        "code": "9999",
        "name": "메가박스 창동",
        "lat": 37.6545770264401,
        "lng": 127.0387192877969,
        "address": "서울 도봉구 도봉로 558",
        "phone": "1544-0070"
    },
    {
        "provider": "ETC",
        "code": "9999",
        "name": "시티극장",
        "lat": 37.5003940501186,
        "lng": 127.026984456104,
        "address": "서울 강남구 강남대로 422",
        "phone": "070-6207-0422"
    },
    {
        "provider": "ETC",
        "code": "9999",
        "name": "명작극장",
        "lat": 37.4618320546766,
        "lng": 127.050760459628,
        "address": "서울 서초구 염곡말길 9",
        "phone": "02-6953-7133"
    },
    {
        "provider": "ETC",
        "code": "9999",
        "name": "자체휴강시네마",
        "lat": 37.4707830266584,
        "lng": 126.965046304156,
        "address": "서울 관악구 인헌12길 42",
        "phone": ""
    },
    {
        "provider": "ETC",
        "code": "9999",
        "name": "KU시네마테크",
        "lat": 37.5427053469115,
        "lng": 127.07321974685,
        "address": "서울 광진구 능동로 120",
        "phone": "02-446-6579"
    },
    {
        "provider": "CGV",
        "code": "9999",
        "name": "CGV 동대문",
        "lat": 37.56872428046827,
        "lng": 127.00768809872345,
        "address": "서울 중구 장충단로13길 20",
        "phone": "1544-1122"
    },
    {
        "provider": "CGV",
        "code": "9999",
        "name": "CGV 명동",
        "lat": 37.5634929642429,
        "lng": 126.982583010911,
        "address": "서울 중구 명동길 14",
        "phone": "1544-1122"
    },
    {
        "provider": "ETC",
        "code": "9999",
        "name": "바다극장",
        "lat": 37.5692966529478,
        "lng": 126.998460557379,
        "address": "서울 종로구 청계천로 187",
        "phone": ""
    },
    {
        "provider": "CGV",
        "code": "9999",
        "name": "CGV 피카디리1958",
        "lat": 37.570993818720254,
        "lng": 126.99131327152529,
        "address": "서울 종로구 돈화문로5가길 1",
        "phone": "1544-1122"
    },
    {
        "provider": "CGV",
        "code": "9999",
        "name": "CGV 천호",
        "lat": 37.5459183335957,
        "lng": 127.142304133234,
        "address": "서울 강동구 양재대로 1571",
        "phone": "1544-1122"
    },
    {
        "provider": "CGV",
        "code": "9999",
        "name": "CGV 고덕강일점",
        "lat": 37.5664459112706,
        "lng": 127.15776982500432,
        "address": "서울 강동구 고덕비즈밸리로 51",
        "phone": "1544-1122"
    },
    {
        "provider": "CGV",
        "code": "9999",
        "name": "CGV 스타필드시티위례",
        "lat": 37.48003667615236,
        "lng": 127.14839737157858,
        "address": "경기 하남시 위례대로 200",
        "phone": "1544-1122"
    },
    {
        "provider": "CGV",
        "code": "9999",
        "name": "CGV 상봉",
        "lat": 37.59748249443501,
        "lng": 127.09216357979345,
        "address": "서울 중랑구 상봉로 131",
        "phone": "1544-1122"
    },
    {
        "provider": "CGV",
        "code": "9999",
        "name": "CGV 구리",
        "lat": 37.60173965197465,
        "lng": 127.14211482618416,
        "address": "경기 구리시 경춘로 243",
        "phone": "1544-1122"
    },
    {
        "provider": "LOTTE",
        "code": "9999",
        "name": "롯데시네마 하남미사",
        "lat": 37.558143624412665,
        "lng": 127.20450019783692,
        "address": "경기 하남시 미사대로 520",
        "phone": "1544-8855"
    },
    {
        "provider": "LOTTE",
        "code": "9999",
        "name": "롯데시네마 구리아울렛",
        "lat": 37.61221566630606,
        "lng": 127.14043020746239,
        "address": "경기 구리시 동구릉로136번길 47",
        "phone": "1544-8855"
    },
    {
        "provider": "LOTTE",
        "code": "9999",
        "name": "롯데시네마 성남중앙",
        "lat": 37.441076512158304,
        "lng": 127.14657792726382,
        "address": "경기 성남시 수정구 산성대로 267",
        "phone": "1544-8855"
    },
    {
        "provider": "LOTTE",
        "code": "9999",
        "name": "롯데시네마 중랑",
        "lat": 37.6151128766676,
        "lng": 127.075977300625,
        "address": "서울 중랑구 동일로 951",
        "phone": "1544-8855"
    },
    {
        "provider": "LOTTE",
        "code": "9999",
        "name": "롯데시네마 별내",
        "lat": 37.6443264904451,
        "lng": 127.12719960931832,
        "address": "경기 남양주시 별내중앙로 10",
        "phone": "1544-8855"
    },
    {
        "provider": "MEGA",
        "code": "9999",
        "name": "메가박스 하남스타필드",
        "lat": 37.54474430552735,
        "lng": 127.22513397420279,
        "address": "경기 하남시 미사대로 750",
        "phone": "1544-0070"
    },
    {
        "provider": "MEGA",
        "code": "9999",
        "name": "메가박스 별내",
        "lat": 37.655909061491,
        "lng": 127.1267909949099,
        "address": "경기 남양주시 두물로 19",
        "phone": "1544-0070"
    },
    {
        "provider": "MEGA",
        "code": "9999",
        "name": "메가박스 남양주",
        "lat": 37.6548218456356,
        "lng": 127.24410880166,
        "address": "경기 남양주시 늘을2로 26",
        "phone": "1544-0070"
    },
    {
        "provider": "CGV",
        "code": "9999",
        "name": "CGV 다산",
        "lat": 37.6125801175584,
        "lng": 127.151711567679,
        "address": "경기 남양주시 다산순환로 20",
        "phone": "1544-1122"
    },
    {
        "provider": "ETC",
        "code": "9999",
        "name": "씨네큐 남양주다산",
        "lat": 37.610293300276844,
        "lng": 127.1671324306719,
        "address": "경기 남양주시 경춘로 490",
        "phone": "1544-1533"
    },
    {
        "provider": "CGV",
        "code": "9999",
        "name": "CGV 등촌",
        "lat": 37.557863496086156,
        "lng": 126.85599360789234,
        "address": "서울 강서구 공항대로45길 63",
        "phone": "1544-1122"
    },
    {
        "provider": "CGV",
        "code": "9999",
        "name": "CGV 영등포타임스퀘어",
        "lat": 37.5175176380239,
        "lng": 126.902756404631,
        "address": "서울 영등포구 영중로 15",
        "phone": "1544-1122"
    },
    {
        "provider": "CGV",
        "code": "9999",
        "name": "CGV 구로",
        "lat": 37.501457454683,
        "lng": 126.882208106149,
        "address": "서울 구로구 구로중앙로 152",
        "phone": "1544-1122"
    },
    {
        "provider": "CGV",
        "code": "9999",
        "name": "CGV 홍대",
        "lat": 37.5565023873948,
        "lng": 126.922624553201,
        "address": "서울 마포구 양화로 153",
        "phone": "1544-1122"
    },
    {
        "provider": "CGV",
        "code": "9999",
        "name": "CGV 연남",
        "lat": 37.55767576550851,
        "lng": 126.92586924777187,
        "address": "서울 마포구 양화로 186",
        "phone": "1544-1122"
    },
    {
        "provider": "CGV",
        "code": "9999",
        "name": "CGV 고양행신",
        "lat": 37.61360673530944,
        "lng": 126.83450244308372,
        "address": "경기 고양시 덕양구 충장로 8",
        "phone": "1544-1122"
    },
    {
        "provider": "CGV",
        "code": "9999",
        "name": "CGV 여의도",
        "lat": 37.5256928036018,
        "lng": 126.92558188499092,
        "address": "서울 영등포구 국제금융로 10",
        "phone": "1544-1122"
    },
    {
        "provider": "CGV",
        "code": "9999",
        "name": "CGV 신촌아트레온",
        "lat": 37.55651712691753,
        "lng": 126.94024927380556,
        "address": "서울 서대문구 신촌로 129",
        "phone": "1544-1122"
    },
    {
        "provider": "CGV",
        "code": "9999",
        "name": "CGV 역곡",
        "lat": 37.4842964396909,
        "lng": 126.811066891584,
        "address": "경기 부천시 소사구 경인로 505",
        "phone": "1544-1122"
    },
    {
        "provider": "CGV",
        "code": "9999",
        "name": "CGV 부천",
        "lat": 37.50436023009365,
        "lng": 126.7604963638765,
        "address": "경기 부천시 원미구 길주로 172",
        "phone": "1544-1122"
    },
    {
        "provider": "CGV",
        "code": "9999",
        "name": "CGV 부천역",
        "lat": 37.48585717523398,
        "lng": 126.78091334936622,
        "address": "경기 부천시 원미구 부일로 460",
        "phone": "1544-1122"
    },
    {
        "provider": "CGV",
        "code": "9999",
        "name": "CGV 화정",
        "lat": 37.6357727278651,
        "lng": 126.833175325726,
        "address": "경기 고양시 덕양구 화중로104번길 28",
        "phone": "1544-1122"
    },
    {
        "provider": "CGV",
        "code": "9999",
        "name": "CGV 불광",
        "lat": 37.60947048970448,
        "lng": 126.92918154846974,
        "address": "서울 은평구 불광로 20",
        "phone": "1544-1122"
    },
    {
        "provider": "CGV",
        "code": "9999",
        "name": "CGV 소풍",
        "lat": 37.5047074291607,
        "lng": 126.75711932541553,
        "address": "경기 부천시 원미구 송내대로 239",
        "phone": "1544-1122"
    },
    {
        "provider": "CGV",
        "code": "9999",
        "name": "CGV 계양",
        "lat": 37.53388480323595,
        "lng": 126.73462857694774,
        "address": "인천 계양구 장제로 738",
        "phone": "1544-1122"
    },
    {
        "provider": "LOTTE",
        "code": "9999",
        "name": "롯데시네마 가양",
        "lat": 37.56156337799074,
        "lng": 126.8533832890494,
        "address": "서울 강서구 양천로 476",
        "phone": "1544-8855"
    },
    {
        "provider": "LOTTE",
        "code": "9999",
        "name": "롯데시네마 김포공항",
        "lat": 37.5637133658076,
        "lng": 126.803871637376,
        "address": "서울 강서구 하늘길 지하 77",
        "phone": "1544-8855"
    },
    {
        "provider": "LOTTE",
        "code": "9999",
        "name": "롯데시네마 신도림",
        "lat": 37.5089531254915,
        "lng": 126.888937271598,
        "address": "서울 구로구 경인로 662",
        "phone": "1544-8855"
    },
    {
        "provider": "LOTTE",
        "code": "9999",
        "name": "롯데시네마 광명",
        "lat": 37.47944883645935,
        "lng": 126.85565807037314,
        "address": "경기 광명시 오리로 970",
        "phone": "1544-8855"
    },
    {
        "provider": "LOTTE",
        "code": "9999",
        "name": "롯데시네마 부천",
        "lat": 37.502772467096776,
        "lng": 126.77317922365057,
        "address": "경기 부천시 원미구 길주로 280",
        "phone": "1544-8855"
    },
    {
        "provider": "LOTTE",
        "code": "9999",
        "name": "롯데시네마 가산디지털",
        "lat": 37.478019960086,
        "lng": 126.889145868138,
        "address": "서울 금천구 디지털로10길 9",
        "phone": "1544-8855"
    },
    {
        "provider": "LOTTE",
        "code": "9999",
        "name": "롯데시네마 은평",
        "lat": 37.6365855404838,
        "lng": 126.91782279395142,
        "address": "서울 은평구 통일로 1050",
        "phone": "1544-8855"
    },
    {
        "provider": "LOTTE",
        "code": "9999",
        "name": "롯데시네마 부평갈산",
        "lat": 37.51494221488857,
        "lng": 126.72712961413177,
        "address": "인천 부평구 주부토로 236",
        "phone": "1544-8855"
    },
    {
        "provider": "LOTTE",
        "code": "9999",
        "name": "롯데시네마 부평",
        "lat": 37.4935269725412,
        "lng": 126.726650062467,
        "address": "인천 부평구 대정로 66",
        "phone": "1544-8855"
    },
    {
        "provider": "LOTTE",
        "code": "9999",
        "name": "롯데시네마 부평역사",
        "lat": 37.48975484739911,
        "lng": 126.7233303921519,
        "address": "인천 부평구 광장로 16",
        "phone": "1544-8855"
    },
    {
        "provider": "LOTTE",
        "code": "9999",
        "name": "롯데시네마 라페스타",
        "lat": 37.661194598643654,
        "lng": 126.76892407927542,
        "address": "경기 고양시 일산동구 무궁화로 32-34",
        "phone": "1544-8855"
    },
    {
        "provider": "LOTTE",
        "code": "9999",
        "name": "롯데시네마 광명아울렛",
        "lat": 37.42488874457603,
        "lng": 126.88416064133736,
        "address": "경기 광명시 일직로 17",
        "phone": "1544-8855"
    },
    {
        "provider": "LOTTE",
        "code": "9999",
        "name": "롯데시네마 인천아시아드",
        "lat": 37.54656112926333,
        "lng": 126.66744610263714,
        "address": "인천 서구 봉수대로 806",
        "phone": "1544-8855"
    },
    {
        "provider": "LOTTE",
        "code": "9999",
        "name": "롯데시네마 인천터미널",
        "lat": 37.44211316710403,
        "lng": 126.70185922366734,
        "address": "인천 미추홀구 연남로 35",
        "phone": "1544-8855"
    },
    {
        "provider": "MEGA",
        "code": "9999",
        "name": "메가박스 화곡",
        "lat": 37.54058097265443,
        "lng": 126.8375663037943,
        "address": "서울 강서구 화곡로 142",
        "phone": "1544-0070"
    },
    {
        "provider": "MEGA",
        "code": "9999",
        "name": "메가박스 마곡",
        "lat": 37.5593139908802,
        "lng": 126.835238296528,
        "address": "서울 강서구 공항대로 247",
        "phone": "1544-0070"
    },
    {
        "provider": "MEGA",
        "code": "9999",
        "name": "메가박스 부천스타필드시티",
        "lat": 37.46124428354941,
        "lng": 126.81400719952143,
        "address": "경기 부천시 소사구 옥길로 1",
        "phone": "1544-0070"
    },
    {
        "provider": "MEGA",
        "code": "9999",
        "name": "메가박스 고양스타필드",
        "lat": 37.646791523587744,
        "lng": 126.8926857986271,
        "address": "경기 고양시 덕양구 고양대로 1955",
        "phone": "1544-0070"
    },
    {
        "provider": "MEGA",
        "code": "9999",
        "name": "메가박스 백석벨라시타",
        "lat": 37.64205297845609,
        "lng": 126.79150603200168,
        "address": "경기 고양시 일산동구 강송로 33",
        "phone": "1544-0070"
    },
    {
        "provider": "MEGA",
        "code": "9999",
        "name": "메가박스 킨텍스",
        "lat": 37.66793792051387,
        "lng": 126.75182227831553,
        "address": "경기 고양시 일산서구 호수로 817",
        "phone": "1544-0070"
    },
    {
        "provider": "MEGA",
        "code": "9999",
        "name": "메가박스 검단",
        "lat": 37.5879514265749,
        "lng": 126.675404972284,
        "address": "인천 서구 서곶로 788",
        "phone": "1544-0070"
    },
    {
        "provider": "MEGA",
        "code": "9999",
        "name": "메가박스 청라지젤",
        "lat": 37.53342185062802,
        "lng": 126.6561022494387,
        "address": "인천 서구 청라에메랄드로 99",
        "phone": "1544-0070"
    },
    {
        "provider": "MEGA",
        "code": "9999",
        "name": "메가박스 파주운정",
        "lat": 37.70572925064641,
        "lng": 126.75872832950384,
        "address": "경기 파주시 경의로 989",
        "phone": "1544-0070"
    },
    {
        "provider": "ETC",
        "code": "9999",
        "name": "시네마테크KOFA",
        "lat": 37.5806123846609,
        "lng": 126.890026424992,
        "address": "서울 마포구 월드컵북로 400",
        "phone": "02-3153-2075"
    },
    {
        "provider": "ETC",
        "code": "9999",
        "name": "씨네Q 신도림",
        "lat": 37.507516152916054,
        "lng": 126.89003874131905,
        "address": "서울 구로구 새말로 97",
        "phone": "1544-1533"
    },
    {
        "provider": "ETC",
        "code": "9999",
        "name": "KT&G 상상마당 시네마",
        "lat": 37.5510160623612,
        "lng": 126.921036839018,
        "address": "서울 마포구 어울마당로 65",
        "phone": "02-330-6243"
    },
    {
        "provider": "ETC",
        "code": "9999",
        "name": "라이카시네마",
        "lat": 37.5651643154485,
        "lng": 126.930932651709,
        "address": "서울 서대문구 연희로8길 18",
        "phone": "070-7780-0963"
    },
    {
        "provider": "ETC",
        "code": "9999",
        "name": "시네마9",
        "lat": 37.48142534625769,
        "lng": 126.88039326444984,
        "address": "서울 금천구 가산디지털1로 181",
        "phone": "02-6061-9990"
    },
    {
        "provider": "CGV",
        "code": "9999",
        "name": "CGV 중계",
        "lat": 37.6396655720199,
        "lng": 127.068773695534,
        "address": "서울 노원구 동일로204가길 12",
        "phone": "1544-1122"
    },
    {
        "provider": "CGV",
        "code": "9999",
        "name": "CGV 방학",
        "lat": 37.6653861881832,
        "lng": 127.043635927027,
        "address": "서울 도봉구 도봉로 684",
        "phone": "1544-1122"
    },
    {
        "provider": "CGV",
        "code": "9999",
        "name": "CGV 수유",
        "lat": 37.64238839946736,
        "lng": 127.0298445691386,
        "address": "서울 강북구 도봉로 399",
        "phone": "1544-1122"
    },
    {
        "provider": "CGV",
        "code": "9999",
        "name": "CGV 미아",
        "lat": 37.6120573620072,
        "lng": 127.030715864901,
        "address": "서울 강북구 도봉로 34",
        "phone": "1544-1122"
    },
    {
        "provider": "CGV",
        "code": "9999",
        "name": "CGV 구리갈매",
        "lat": 37.63576885103721,
        "lng": 127.1230384228229,
        "address": "경기 구리시 갈매순환로 180",
        "phone": "1544-1122"
    },
    {
        "provider": "CGV",
        "code": "9999",
        "name": "CGV 의정부",
        "lat": 37.738069765117615,
        "lng": 127.04573087874962,
        "address": "경기 의정부시 평화로 525",
        "phone": "1544-1122"
    },
    {
        "provider": "CGV",
        "code": "9999",
        "name": "CGV 대학로",
        "lat": 37.583458493533186,
        "lng": 126.99984149795074,
        "address": "서울 종로구 대명길 28",
        "phone": "1544-1122"
    },
    {
        "provider": "LOTTE",
        "code": "9999",
        "name": "롯데시네마 노원",
        "lat": 37.655019837734514,
        "lng": 127.06112486570564,
        "address": "서울 노원구 동일로 1414",
        "phone": "1544-8855"
    },
    {
        "provider": "LOTTE",
        "code": "9999",
        "name": "롯데시네마 수유",
        "lat": 37.6356972554135,
        "lng": 127.0238146009,
        "address": "서울 강북구 도봉로 308",
        "phone": "1544-8855"
    },
    {
        "provider": "LOTTE",
        "code": "9999",
        "name": "롯데시네마 의정부민락",
        "lat": 37.74418460400176,
        "lng": 127.0965500169035,
        "address": "경기 의정부시 천보로 44",
        "phone": "1544-8855"
    },
    {
        "provider": "LOTTE",
        "code": "9999",
        "name": "롯데시네마 진접",
        "lat": 37.712034247452856,
        "lng": 127.1866632233379,
        "address": "경기 남양주시 진접읍 해밀예당1로 36",
        "phone": "1544-8855"
    },
    {
        "provider": "MEGA",
        "code": "9999",
        "name": "메가박스 의정부민락",
        "lat": 37.74569512834103,
        "lng": 127.09593587837935,
        "address": "경기 의정부시 오목로205번길 55",
        "phone": "1544-0070"
    },
    {
        "provider": "ETC",
        "code": "9999",
        "name": "더숲아트시네마",
        "lat": 37.6541610382725,
        "lng": 127.061439199647,
        "address": "서울 노원구 노해로 480",
        "phone": "02-951-0206"
    },
    {
        "provider": "ETC",
        "code": "9999",
        "name": "그때 그 시절 청춘극장",
        "lat": 37.65413473567,
        "lng": 127.038439150421,
        "address": "서울 도봉구 도봉로 552",
        "phone": ""
    },
    {
        "provider": "ETC",
        "code": "9999",
        "name": "하늘채시네마",
        "lat": 37.6189105259862,
        "lng": 127.046489193488,
        "address": "서울 성북구 돌곶이로 220",
        "phone": ""
    },
    {
        "provider": "ETC",
        "code": "9999",
        "name": "낭만극장",
        "lat": 37.5727540838764,
        "lng": 126.988108388023,
        "address": "서울 종로구 삼일대로 428",
        "phone": ""
    },
    {
        "provider": "ETC",
        "code": "9999",
        "name": "에무시네마",
        "lat": 37.5720658580513,
        "lng": 126.969006250711,
        "address": "서울 종로구 경희궁1가길 7",
        "phone": "02-730-5604"
    },
    {
        "provider": "ETC",
        "code": "9999",
        "name": "서울아트시네마",
        "lat": 37.56816479719067,
        "lng": 126.96997000422863,
        "address": "서울 중구 정동길 3",
        "phone": "02-741-9782"
    },
    {
        "provider": "ETC",
        "code": "9999",
        "name": "씨네큐브 광화문",
        "lat": 37.5696501678756,
        "lng": 126.972131429357,
        "address": "서울 종로구 새문안로 68",
        "phone": "02-2002-7776"
    },
    {
        "provider": "LOTTE",
        "code": "9999",
        "name": "롯데시네마 안양일번가",
        "lat": 37.39968735150838,
        "lng": 126.92024268892102,
        "address": "경기 안양시 만안구 안양로 311",
        "phone": "1544-8855"
    },
    {
        "provider": "CGV",
        "code": "9999",
        "name": "CGV 인천",
        "lat": 37.4514120781238,
        "lng": 126.702048352406,
        "address": "인천 남동구 예술로 198",
        "phone": "1544-1122"
    },
    {
        "provider": "CGV",
        "code": "9999",
        "name": "CGV 인천시민공원",
        "lat": 37.458005291406025,
        "lng": 126.6811869977628,
        "address": "인천 미추홀구 경인로 372",
        "phone": "1544-1122"
    },
    {
        "provider": "CGV",
        "code": "9999",
        "name": "CGV 주안역",
        "lat": 37.4655521122736,
        "lng": 126.680510641618,
        "address": "인천 미추홀구 염창로 58",
        "phone": "1544-1122"
    },
    {
        "provider": "CGV",
        "code": "9999",
        "name": "CGV 인천도화",
        "lat": 37.46953716665976,
        "lng": 126.66454328242662,
        "address": "인천 미추홀구 숙골로88번길 12",
        "phone": "1544-1122"
    },
    {
        "provider": "CGV",
        "code": "9999",
        "name": "CGV 인천학익",
        "lat": 37.445614644438166,
        "lng": 126.65182380654828,
        "address": "인천 미추홀구 매소홀로 255",
        "phone": "1544-1122"
    },
    {
        "provider": "CGV",
        "code": "9999",
        "name": "CGV 인천연수",
        "lat": 37.4063553399105,
        "lng": 126.683088911013,
        "address": "인천 연수구 청능대로 210",
        "phone": "1544-1122"
    },
    {
        "provider": "CGV",
        "code": "9999",
        "name": "CGV 부평",
        "lat": 37.5219833057045,
        "lng": 126.703844870675,
        "address": "인천 부평구 마장로 489",
        "phone": "1544-1122"
    },
    {
        "provider": "LOTTE",
        "code": "9999",
        "name": "롯데시네마 시화",
        "lat": 37.35139081810299,
        "lng": 126.74184899674304,
        "address": "경기 시흥시 마유로418번길 10",
        "phone": "1544-8855"
    },
    {
        "provider": "LOTTE",
        "code": "9999",
        "name": "롯데시네마 시흥장현",
        "lat": 37.37119370379513,
        "lng": 126.80659799056328,
        "address": "경기 시흥시 장현능곡로 155",
        "phone": "1544-8855"
    },
    {
        "provider": "LOTTE",
        "code": "9999",
        "name": "롯데시네마 센트럴락",
        "lat": 37.3185703947236,
        "lng": 126.838039647069,
        "address": "경기 안산시 단원구 고잔로 108",
        "phone": "1544-8855"
    },
    {
        "provider": "LOTTE",
        "code": "9999",
        "name": "롯데시네마 안산고잔",
        "lat": 37.3088658672853,
        "lng": 126.828797115822,
        "address": "경기 안산시 단원구 광덕대로 137",
        "phone": "1544-8855"
    },
    {
        "provider": "LOTTE",
        "code": "9999",
        "name": "롯데시네마 안산",
        "lat": 37.3181881375663,
        "lng": 126.845973726405,
        "address": "경기 안산시 상록구 항가울로 422",
        "phone": "1544-8855"
    },
    {
        "provider": "MEGA",
        "code": "9999",
        "name": "메가박스 인천학익",
        "lat": 37.4417894646977,
        "lng": 126.648646981544,
        "address": "인천 미추홀구 학익로80번길 11",
        "phone": "1544-0070"
    },
    {
        "provider": "MEGA",
        "code": "9999",
        "name": "메가박스 인천논현",
        "lat": 37.3974051999439,
        "lng": 126.727415146976,
        "address": "인천 남동구 논고개로 61",
        "phone": "1544-0070"
    },
    {
        "provider": "MEGA",
        "code": "9999",
        "name": "메가박스 송도",
        "lat": 37.379145028947,
        "lng": 126.66241493059,
        "address": "인천 연수구 송도과학로16번길 33-4",
        "phone": "1544-0070"
    },
    {
        "provider": "MEGA",
        "code": "9999",
        "name": "메가박스 시흥배곧",
        "lat": 37.36969807472688,
        "lng": 126.73063918460956,
        "address": "경기 시흥시 배곧3로 96",
        "phone": "1544-0070"
    },
    {
        "provider": "MEGA",
        "code": "9999",
        "name": "메가박스 시흥정왕",
        "lat": 37.346003220878586,
        "lng": 126.73677980614649,
        "address": "경기 시흥시 정왕대로 210",
        "phone": "1544-0070"
    },
    {
        "provider": "MEGA",
        "code": "9999",
        "name": "메가박스 영종하늘도시",
        "lat": 37.489704123426,
        "lng": 126.561339205895,
        "address": "인천 중구 하늘중앙로195번길 15",
        "phone": "1544-0070"
    },
    {
        "provider": "MEGA",
        "code": "9999",
        "name": "메가박스 영종",
        "lat": 37.49226635962365,
        "lng": 126.49877230693686,
        "address": "인천 중구 영종대로 184",
        "phone": "1544-0070"
    },
    {
        "provider": "MEGA",
        "code": "9999",
        "name": "메가박스 안산중앙",
        "lat": 37.31804339161138,
        "lng": 126.83550015440109,
        "address": "경기 안산시 단원구 고잔2길 41",
        "phone": "1544-0070"
    },
    {
        "provider": "ETC",
        "code": "9999",
        "name": "마을극장 나무",
        "lat": 37.4882224742492,
        "lng": 126.682236827518,
        "address": "인천 서구 장고개로 272",
        "phone": ""
    },
    {
        "provider": "ETC",
        "code": "9999",
        "name": "부평 대한극장",
        "lat": 37.4910588948448,
        "lng": 126.72230337714,
        "address": "인천 부평구 경원대로 1382",
        "phone": "032-503-3330"
    },
    {
        "provider": "ETC",
        "code": "9999",
        "name": "인천미림극장",
        "lat": 37.4755022872001,
        "lng": 126.634329439097,
        "address": "인천 동구 화도진로 31",
        "phone": "032-764-8880"
    },
    {
        "provider": "ETC",
        "code": "9999",
        "name": "가치함께시네마",
        "lat": 37.4754706965189,
        "lng": 126.634311504687,
        "address": "인천 동구 화도진로 31",
        "phone": ""
    },
    {
        "provider": "ETC",
        "code": "9999",
        "name": "애관극장",
        "lat": 37.4723491950769,
        "lng": 126.629836472753,
        "address": "인천 중구 개항로 63-2",
        "phone": "032-761-7177"
    },
    {
        "provider": "CGV",
        "code": "9999",
        "name": "CGV 인천가정",
        "lat": 37.52207761529034,
        "lng": 126.67364644646146,
        "address": "인천 서구 가정로 406",
        "phone": "1544-1122"
    },
    {
        "provider": "CGV",
        "code": "9999",
        "name": "CGV 송도타임스페이스",
        "lat": 37.38312354252111,
        "lng": 126.64235724101351,
        "address": "인천 연수구 하모니로 158",
        "phone": "1544-1122"
    },
    {
        "provider": "ETC",
        "code": "9999",
        "name": "씨네Q 청라",
        "lat": 37.5338903298084,
        "lng": 126.650259799273,
        "address": "인천 서구 중봉대로 610",
        "phone": ""
    },
    {
        "provider": "CGV",
        "code": "9999",
        "name": "CGV 배곧",
        "lat": 37.3680568124489,
        "lng": 126.73042039927753,
        "address": "경기 시흥시 서울대학로278번길 61",
        "phone": "1544-1122"
    },
    {
        "provider": "CGV",
        "code": "9999",
        "name": "CGV 청라",
        "lat": 37.53246613991757,
        "lng": 126.6416396725857,
        "address": "인천 서구 청라루비로 76",
        "phone": "1544-1122"
    },
    {
        "provider": "ETC",
        "code": "9999",
        "name": "송도자이더스타 클럽자이안시네마",
        "lat": 37.3848563136175,
        "lng": 126.613194143722,
        "address": "인천 연수구 아카데미로343번길 63",
        "phone": ""
    },
    {
        "provider": "CGV",
        "code": "9999",
        "name": "CGV 동수원",
        "lat": 37.26390632559984,
        "lng": 127.03231003231717,
        "address": "경기 수원시 팔달구 권광로 181",
        "phone": "1544-1122"
    },
    {
        "provider": "CGV",
        "code": "9999",
        "name": "CGV 광교",
        "lat": 37.2854244483569,
        "lng": 127.05746079228076,
        "address": "경기 수원시 영통구 광교중앙로 124",
        "phone": "1544-1122"
    },
    {
        "provider": "CGV",
        "code": "9999",
        "name": "CGV 광교상현",
        "lat": 37.296818783059095,
        "lng": 127.06801934059507,
        "address": "경기 용인시 수지구 광교중앙로295번길 9",
        "phone": "1544-1122"
    },
    {
        "provider": "CGV",
        "code": "9999",
        "name": "CGV 화성봉담",
        "lat": 37.2190609462742,
        "lng": 126.95551833442,
        "address": "경기 화성시 효행구 봉담읍 동화길 51",
        "phone": "1544-1122"
    },
    {
        "provider": "CGV",
        "code": "9999",
        "name": "CGV 동탄",
        "lat": 37.20530434391312,
        "lng": 127.06941394511011,
        "address": "경기 화성시 동탄구 동탄중앙로 220",
        "phone": "1544-1122"
    },
    {
        "provider": "CGV",
        "code": "9999",
        "name": "CGV 용인기흥",
        "lat": 37.28059964056819,
        "lng": 127.11792832010876,
        "address": "경기 용인시 기흥구 기흥로 58",
        "phone": "1544-1122"
    },
    {
        "provider": "CGV",
        "code": "9999",
        "name": "CGV 동탄역",
        "lat": 37.2020815853181,
        "lng": 127.098270280686,
        "address": "경기 화성시 동탄구 동탄대로 537",
        "phone": "1544-1122"
    },
    {
        "provider": "CGV",
        "code": "9999",
        "name": "CGV 신세계경기",
        "lat": 37.3253825313089,
        "lng": 127.107948735813,
        "address": "경기 용인시 수지구 포은대로 536",
        "phone": "1544-1122"
    },
    {
        "provider": "CGV",
        "code": "9999",
        "name": "CGV 오리",
        "lat": 37.34079033035717,
        "lng": 127.10677344222958,
        "address": "경기 성남시 분당구 탄천상로151번길 20",
        "phone": "1544-1122"
    },
    {
        "provider": "CGV",
        "code": "9999",
        "name": "CGV 산본",
        "lat": 37.35866439665991,
        "lng": 126.93296222767664,
        "address": "경기 군포시 번영로 505",
        "phone": "1544-1122"
    },
    {
        "provider": "CGV",
        "code": "9999",
        "name": "CGV 동백",
        "lat": 37.27839408928229,
        "lng": 127.1517711937968,
        "address": "경기 용인시 기흥구 동백죽전대로 444",
        "phone": "1544-1122"
    },
    {
        "provider": "CGV",
        "code": "9999",
        "name": "CGV 동탄호수공원",
        "lat": 37.17163720416343,
        "lng": 127.106144254764,
        "address": "경기 화성시 동탄구 동탄대로 181",
        "phone": "1544-1122"
    },
    {
        "provider": "CGV",
        "code": "9999",
        "name": "CGV 동탄그랑파사쥬",
        "lat": 37.16762870542441,
        "lng": 127.10580875268037,
        "address": "경기 화성시 동탄구 동탄대로5길 9",
        "phone": "1544-1122"
    },
    {
        "provider": "CGV",
        "code": "9999",
        "name": "CGV 오산중앙",
        "lat": 37.14211510926184,
        "lng": 127.07092967780551,
        "address": "경기 오산시 원동로 22",
        "phone": "1544-1122"
    },
    {
        "provider": "LOTTE",
        "code": "9999",
        "name": "롯데시네마 수원",
        "lat": 37.264343185930606,
        "lng": 126.99660776517145,
        "address": "경기 수원시 권선구 세화로 134",
        "phone": "1544-8855"
    },
    {
        "provider": "LOTTE",
        "code": "9999",
        "name": "롯데시네마 북수원",
        "lat": 37.30058826018479,
        "lng": 126.98397812914982,
        "address": "경기 수원시 장안구 천천로 100",
        "phone": "1544-8855"
    },
    {
        "provider": "LOTTE",
        "code": "9999",
        "name": "롯데시네마 광교",
        "lat": 37.2866632112275,
        "lng": 127.055924685094,
        "address": "경기 수원시 영통구 도청로 10",
        "phone": "1544-8855"
    },
    {
        "provider": "LOTTE",
        "code": "9999",
        "name": "롯데시네마 서수원",
        "lat": 37.27498644164401,
        "lng": 126.9540873239049,
        "address": "경기 수원시 권선구 금곡로 219",
        "phone": "1544-8855"
    },
    {
        "provider": "LOTTE",
        "code": "9999",
        "name": "롯데시네마 병점",
        "lat": 37.21408694028169,
        "lng": 127.04261194496534,
        "address": "경기 화성시 병점구 효행로 1052",
        "phone": "1544-8855"
    },
    {
        "provider": "LOTTE",
        "code": "9999",
        "name": "롯데시네마 수지",
        "lat": 37.31230218719451,
        "lng": 127.0822075919447,
        "address": "경기 용인시 수지구 성복2로 38",
        "phone": "1544-8855"
    },
    {
        "provider": "LOTTE",
        "code": "9999",
        "name": "롯데시네마 용인기흥",
        "lat": 37.27416583217765,
        "lng": 127.11649762274598,
        "address": "경기 용인시 기흥구 기흥역로 63",
        "phone": "1544-8855"
    },
    {
        "provider": "LOTTE",
        "code": "9999",
        "name": "롯데시네마 동탄",
        "lat": 37.20062304033607,
        "lng": 127.09795975241377,
        "address": "경기 화성시 동탄구 여울동 1089",
        "phone": "1544-8855"
    },
    {
        "provider": "LOTTE",
        "code": "9999",
        "name": "롯데시네마 산본피트인",
        "lat": 37.358053890797144,
        "lng": 126.93051674175572,
        "address": "경기 군포시 번영로 485",
        "phone": "1544-8855"
    },
    {
        "provider": "LOTTE",
        "code": "9999",
        "name": "롯데시네마 평촌",
        "lat": 37.3906883656554,
        "lng": 126.950746542073,
        "address": "경기 안양시 동안구 시민대로 180",
        "phone": "1544-8855"
    },
    {
        "provider": "LOTTE",
        "code": "9999",
        "name": "롯데시네마 용인역북",
        "lat": 37.23524532275668,
        "lng": 127.18796046785319,
        "address": "경기 용인시 처인구 중부대로 1294",
        "phone": "1544-8855"
    },
    {
        "provider": "LOTTE",
        "code": "9999",
        "name": "롯데시네마 향남",
        "lat": 37.115156845242645,
        "lng": 126.91248043118019,
        "address": "경기 화성시 만세구 향남읍 상신하길로298번길 7-21",
        "phone": "1544-8855"
    },
    {
        "provider": "MEGA",
        "code": "9999",
        "name": "메가박스 수원AK플라자 수원역",
        "lat": 37.2665525892817,
        "lng": 127.000169109369,
        "address": "경기 수원시 팔달구 덕영대로 924",
        "phone": "1544-0070"
    },
    {
        "provider": "MEGA",
        "code": "9999",
        "name": "메가박스 수원남문",
        "lat": 37.27644494626134,
        "lng": 127.01594346221653,
        "address": "경기 수원시 팔달구 행궁로 71",
        "phone": "1544-0070"
    },
    {
        "provider": "MEGA",
        "code": "9999",
        "name": "메가박스 수원",
        "lat": 37.2513322917954,
        "lng": 127.019959908066,
        "address": "경기 수원시 권선구 경수대로 270",
        "phone": "1544-0070"
    },
    {
        "provider": "MEGA",
        "code": "9999",
        "name": "메가박스 수원인계",
        "lat": 37.2610202499309,
        "lng": 127.032445204367,
        "address": "경기 수원시 팔달구 효원로 278",
        "phone": "1544-0070"
    },
    {
        "provider": "MEGA",
        "code": "9999",
        "name": "메가박스 수원스타필드",
        "lat": 37.287353635951966,
        "lng": 126.99067387097668,
        "address": "경기 수원시 장안구 수성로 175",
        "phone": "02-1544-0070"
    },
    {
        "provider": "MEGA",
        "code": "9999",
        "name": "메가박스 수원호매실 (휴업중)",
        "lat": 37.25874959648229,
        "lng": 126.9643328776692,
        "address": "경기 수원시 권선구 호매실로90번길 76",
        "phone": "1544-0070"
    },
    {
        "provider": "MEGA",
        "code": "9999",
        "name": "메가박스 동탄",
        "lat": 37.2045184071222,
        "lng": 127.0727836300783,
        "address": "경기 화성시 동탄구 동탄지성로 11",
        "phone": "1544-0070"
    },
    {
        "provider": "MEGA",
        "code": "9999",
        "name": "메가박스 동탄역점",
        "lat": 37.19865045238312,
        "lng": 127.09142867718404,
        "address": "경기 화성시 동탄구 동탄오산로 29",
        "phone": "1544-0070"
    },
    {
        "provider": "MEGA",
        "code": "9999",
        "name": "메가박스 용인테크노밸리",
        "lat": 37.2912799496271,
        "lng": 127.148125075785,
        "address": "경기 용인시 기흥구 구성로 357",
        "phone": "1544-0070"
    },
    {
        "provider": "ETC",
        "code": "9999",
        "name": "비디오물소극장 허리우드",
        "lat": 37.2692881473399,
        "lng": 127.001006800861,
        "address": "경기 수원시 팔달구 향교로1번길 22-19",
        "phone": ""
    },
    {
        "provider": "ETC",
        "code": "9999",
        "name": "경기인디시네마관",
        "lat": 37.2862640720145,
        "lng": 127.055880409817,
        "address": "경기 수원시 영통구 도청로 10",
        "phone": ""
    },
    {
        "provider": "CGV",
        "code": "9999",
        "name": "CGV 범계",
        "lat": 37.3893911733673,
        "lng": 126.951424930235,
        "address": "경기 안양시 동안구 동안로 119",
        "phone": "1544-1122"
    },
    {
        "provider": "CGV",
        "code": "9999",
        "name": "CGV 평촌",
        "lat": 37.39305418239436,
        "lng": 126.96226485597738,
        "address": "경기 안양시 동안구 관평로170번길 33",
        "phone": "1544-1122"
    },
    {
        "provider": "ETC",
        "code": "9999",
        "name": "명화극장",
        "lat": 37.3171443268659,
        "lng": 126.838895588099,
        "address": "경기 안산시 단원구 중앙대로 921",
        "phone": "031-480-3827"
    },
    {
        "provider": "CGV",
        "code": "9999",
        "name": "CGV DRIVE IN 용인크랙사이드",
        "lat": 37.24823211062477,
        "lng": 127.19187001643995,
        "address": "경기 용인시 처인구 역북동 89-18",
        "phone": "1544-1122"
    },
    {
        "provider": "CGV",
        "code": "9999",
        "name": "CGV 야탑",
        "lat": 37.4134867375652,
        "lng": 127.127720936437,
        "address": "경기 성남시 분당구 성남대로925번길 16",
        "phone": "1544-1122"
    },
    {
        "provider": "CGV",
        "code": "9999",
        "name": "CGV 판교",
        "lat": 37.39341233412869,
        "lng": 127.11230477800055,
        "address": "경기 성남시 분당구 판교역로146번길 20",
        "phone": "1544-1122"
    },
    {
        "provider": "CGV",
        "code": "9999",
        "name": "CGV 서현",
        "lat": 37.38710590761828,
        "lng": 127.1224615381544,
        "address": "경기 성남시 분당구 서현로180번길 19",
        "phone": "1544-1122"
    },
    {
        "provider": "CGV",
        "code": "9999",
        "name": "CGV 경기광주",
        "lat": 37.40763278448652,
        "lng": 127.25848730078769,
        "address": "경기 광주시 중앙로 89",
        "phone": "1544-1122"
    },
    {
        "provider": "CGV",
        "code": "9999",
        "name": "CGV 고양백석",
        "lat": 37.64361565686452,
        "lng": 126.78968648963917,
        "address": "경기 고양시 일산동구 중앙로 1036",
        "phone": "1544-1122"
    },
    {
        "provider": "CGV",
        "code": "9999",
        "name": "CGV 일산",
        "lat": 37.65501199407606,
        "lng": 126.77259227529372,
        "address": "경기 고양시 일산동구 정발산로 24",
        "phone": "1544-1122"
    },
    {
        "provider": "CGV",
        "code": "9999",
        "name": "CGV 파주운정",
        "lat": 37.7282188001993,
        "lng": 126.764728723299,
        "address": "경기 파주시 와석순환로515번길 70",
        "phone": ""
    },
    {
        "provider": "CGV",
        "code": "9999",
        "name": "CGV 김포",
        "lat": 37.606780124306,
        "lng": 126.72307871730789,
        "address": "경기 김포시 풍무로 128",
        "phone": "1544-1122"
    },
    {
        "provider": "CGV",
        "code": "9999",
        "name": "CGV 김포한강",
        "lat": 37.6322198817679,
        "lng": 126.707214470821,
        "address": "경기 김포시 걸포로 6",
        "phone": "1544-1122"
    },
    {
        "provider": "CGV",
        "code": "9999",
        "name": "CGV 김포운양",
        "lat": 37.654712776603,
        "lng": 126.68412604991,
        "address": "경기 김포시 김포한강11로 288-31",
        "phone": "1544-1122"
    },
    {
        "provider": "LOTTE",
        "code": "9999",
        "name": "롯데시네마 파주야당",
        "lat": 37.71315563512663,
        "lng": 126.75989168073684,
        "address": "경기 파주시 경의로 1074",
        "phone": "1544-8855"
    },
    {
        "provider": "LOTTE",
        "code": "9999",
        "name": "롯데시네마 파주운정",
        "lat": 37.729879971846614,
        "lng": 126.73651710311523,
        "address": "경기 파주시 청암로17번길 17",
        "phone": "1544-8855"
    },
    {
        "provider": "LOTTE",
        "code": "9999",
        "name": "롯데시네마 파주롯데아울렛",
        "lat": 37.71783077681146,
        "lng": 126.69309286862281,
        "address": "경기 파주시 문발로 284",
        "phone": "1544-8855"
    },
    {
        "provider": "MEGA",
        "code": "9999",
        "name": "메가박스 파주금촌",
        "lat": 37.76488408358352,
        "lng": 126.77464186840186,
        "address": "경기 파주시 중앙로 328",
        "phone": "1544-0070"
    },
    {
        "provider": "MEGA",
        "code": "9999",
        "name": "메가박스 김포한강신도시",
        "lat": 37.64507689092461,
        "lng": 126.62450530867432,
        "address": "경기 김포시 김포한강9로75번길 180",
        "phone": "1544-0070"
    },
    {
        "provider": "ETC",
        "code": "9999",
        "name": "포포시네마",
        "lat": 37.6099585421992,
        "lng": 126.724120209762,
        "address": "경기 김포시 풍무로 167",
        "phone": "070-4800-6068"
    },
    {
        "provider": "ETC",
        "code": "9999",
        "name": "장흥자동차극장",
        "lat": 37.72463372772489,
        "lng": 126.95016326707886,
        "address": "경기 양주시 장흥면 권율로 120",
        "phone": "031-855-6050"
    },
    {
        "provider": "CGV",
        "code": "9999",
        "name": "CGV 용인",
        "lat": 37.2350878982088,
        "lng": 127.205695627139,
        "address": "경기 용인시 처인구 금령로 86",
        "phone": "1544-1122"
    },
    {
        "provider": "ETC",
        "code": "9999",
        "name": "씨네별",
        "lat": 37.2043846694512,
        "lng": 127.356470941013,
        "address": "경기 이천시 마장면 청강가창로 389-144",
        "phone": ""
    },
    {
        "provider": "CGV",
        "code": "9999",
        "name": "CGV 안산",
        "lat": 37.3130964120603,
        "lng": 126.830809058377,
        "address": "경기 안산시 단원구 광덕대로 194",
        "phone": "1544-1122"
    },
    {
        "provider": "CGV",
        "code": "9999",
        "name": "CGV 광명역",
        "lat": 37.4227713467612,
        "lng": 126.886945306216,
        "address": "경기 광명시 일직로 43",
        "phone": "1544-1122"
    },
    {
        "provider": "CGV",
        "code": "9999",
        "name": "CGV 남양주화도점",
        "lat": 37.64938988992229,
        "lng": 127.29567447410497,
        "address": "경기 남양주시 화도읍 경춘로1876번길 40",
        "phone": "1544-1122"
    },
    {
        "provider": "LOTTE",
        "code": "9999",
        "name": "롯데시네마 마석",
        "lat": 37.650347579788,
        "lng": 127.309396403879,
        "address": "경기 남양주시 화도읍 경춘로 1992",
        "phone": "1544-8855"
    },
    {
        "provider": "CGV",
        "code": "9999",
        "name": "CGV 춘천",
        "lat": 37.85055452462416,
        "lng": 127.74376481096778,
        "address": "강원특별자치도 춘천시 지석로 80",
        "phone": "1544-1122"
    },
    {
        "provider": "LOTTE",
        "code": "9999",
        "name": "롯데시네마 춘천",
        "lat": 37.87787503558496,
        "lng": 127.72867568989184,
        "address": "강원특별자치도 춘천시 중앙로67번길 18",
        "phone": "1544-8855"
    },
    {
        "provider": "MEGA",
        "code": "9999",
        "name": "메가박스 남춘천",
        "lat": 37.8665315374263,
        "lng": 127.720015575537,
        "address": "강원특별자치도 춘천시 춘천로17번길 17",
        "phone": "1544-0070"
    },
    {
        "provider": "MEGA",
        "code": "9999",
        "name": "메가박스 춘천석사",
        "lat": 37.86296322599243,
        "lng": 127.74786461875385,
        "address": "강원특별자치도 춘천시 후석로 120",
        "phone": "1544-0070"
    },
    {
        "provider": "ETC",
        "code": "9999",
        "name": "백령시네마",
        "lat": 37.87075521714411,
        "lng": 127.74490547274401,
        "address": "강원특별자치도 춘천시 강원대학길 1",
        "phone": "033-250-8013"
    },
    {
        "provider": "CGV",
        "code": "9999",
        "name": "CGV 대전탄방",
        "lat": 36.347011898312125,
        "lng": 127.38867188555845,
        "address": "대전 서구 문정로 85",
        "phone": "1544-1122"
    },
    {
        "provider": "CGV",
        "code": "9999",
        "name": "CGV 대전",
        "lat": 36.32061362411971,
        "lng": 127.4084298628586,
        "address": "대전 중구 계백로 1700",
        "phone": "1544-1122"
    },
    {
        "provider": "CGV",
        "code": "9999",
        "name": "CGV 대전터미널",
        "lat": 36.3510642371679,
        "lng": 127.43749160282,
        "address": "대전 동구 동서대로1695번길 30",
        "phone": "1544-1122"
    },
    {
        "provider": "CGV",
        "code": "9999",
        "name": "CGV 대전가수원",
        "lat": 36.30552013310163,
        "lng": 127.35069165147829,
        "address": "대전 서구 도안동로11번길 45",
        "phone": "1544-1122"
    },
    {
        "provider": "CGV",
        "code": "9999",
        "name": "CGV 유성노은",
        "lat": 36.37253644408374,
        "lng": 127.3184252503807,
        "address": "대전 유성구 노은로 144",
        "phone": "1544-1122"
    },
    {
        "provider": "CGV",
        "code": "9999",
        "name": "CGV 대전가오",
        "lat": 36.3070243467936,
        "lng": 127.45802625059,
        "address": "대전 동구 은어송로 72",
        "phone": "1544-1122"
    },
    {
        "provider": "LOTTE",
        "code": "9999",
        "name": "롯데시네마 대전센트럴",
        "lat": 36.35196179392484,
        "lng": 127.37949994237754,
        "address": "대전 서구 대덕대로 216",
        "phone": "1544-8855"
    },
    {
        "provider": "LOTTE",
        "code": "9999",
        "name": "롯데시네마 대전",
        "lat": 36.3409753886784,
        "lng": 127.389359241044,
        "address": "대전 서구 계룡로 598",
        "phone": "1544-8855"
    },
    {
        "provider": "LOTTE",
        "code": "9999",
        "name": "롯데시네마 대전관저",
        "lat": 36.3025443444665,
        "lng": 127.333718575402,
        "address": "대전 서구 봉우로8번길 23",
        "phone": "1544-8855"
    },
    {
        "provider": "MEGA",
        "code": "9999",
        "name": "메가박스 대전신세계아트앤사이언스",
        "lat": 36.375382706067946,
        "lng": 127.38250553005706,
        "address": "대전 유성구 엑스포로 1",
        "phone": "1544-0070"
    },
    {
        "provider": "MEGA",
        "code": "9999",
        "name": "메가박스 대전유성",
        "lat": 36.3522839359633,
        "lng": 127.344558913244,
        "address": "대전 유성구 계룡로132번길 10",
        "phone": "1544-0070"
    },
    {
        "provider": "MEGA",
        "code": "9999",
        "name": "메가박스 대전중앙로",
        "lat": 36.327535701175115,
        "lng": 127.42417595959552,
        "address": "대전 중구 중앙로 126",
        "phone": "1544-0070"
    },
    {
        "provider": "MEGA",
        "code": "9999",
        "name": "메가박스 대전현대아울렛",
        "lat": 36.42327281544626,
        "lng": 127.39975633873473,
        "address": "대전 유성구 테크노중앙로 123",
        "phone": "1544-0070"
    },
    {
        "provider": "MEGA",
        "code": "9999",
        "name": "메가박스 세종나성",
        "lat": 36.48351969165692,
        "lng": 127.26363077296222,
        "address": "세종특별자치시 나성로 38",
        "phone": "1544-0070"
    },
    {
        "provider": "ETC",
        "code": "9999",
        "name": "소소아트시네마",
        "lat": 36.3512887596354,
        "lng": 127.421407144237,
        "address": "대전 대덕구 한남로 61",
        "phone": "042-623-1623"
    },
    {
        "provider": "ETC",
        "code": "9999",
        "name": "씨네인디 U",
        "lat": 36.321248524660305,
        "lng": 127.40987197192223,
        "address": "대전 중구 계백로 1712",
        "phone": "042-331-1895"
    },
    {
        "provider": "ETC",
        "code": "9999",
        "name": "대전아트시네마",
        "lat": 36.3301284478354,
        "lng": 127.43046039821404,
        "address": "대전 동구 중앙로 192",
        "phone": "042-472-1138"
    },
    {
        "provider": "ETC",
        "code": "9999",
        "name": "동화극장",
        "lat": 36.3232249882132,
        "lng": 127.435558567197,
        "address": "대전 동구 대전천동로 462",
        "phone": ""
    },
    {
        "provider": "ETC",
        "code": "9999",
        "name": "별빛영화마을 대전자동차극장",
        "lat": 36.23171321135801,
        "lng": 127.31729936556995,
        "address": "대전 서구 벌곡로 294",
        "phone": "042-863-0104"
    },
    {
        "provider": "ETC",
        "code": "9999",
        "name": "옥천향수시네마",
        "lat": 36.30402897844915,
        "lng": 127.57557164022097,
        "address": "충북 옥천군 옥천읍 문정1길 47",
        "phone": "043-732-7717"
    },
    {
        "provider": "CGV",
        "code": "9999",
        "name": "CGV 광주상무",
        "lat": 35.1542946477166,
        "lng": 126.851012735522,
        "address": "광주 서구 시청로 67",
        "phone": "1544-1122"
    },
    {
        "provider": "CGV",
        "code": "9999",
        "name": "CGV 광주하남",
        "lat": 35.17808609989086,
        "lng": 126.80646943382449,
        "address": "광주 광산구 용아로400번길 30",
        "phone": "1544-1122"
    },
    {
        "provider": "CGV",
        "code": "9999",
        "name": "CGV 광주충장로",
        "lat": 35.148997490659,
        "lng": 126.913228795379,
        "address": "광주 동구 중앙로 163",
        "phone": "1544-1122"
    },
    {
        "provider": "CGV",
        "code": "9999",
        "name": "CGV 광주금남로",
        "lat": 35.14683886437138,
        "lng": 126.91468623352131,
        "address": "광주 동구 중앙로160번길 16-7",
        "phone": "1544-1122"
    },
    {
        "provider": "CGV",
        "code": "9999",
        "name": "CGV 광주용봉",
        "lat": 35.18266772109964,
        "lng": 126.9119612057254,
        "address": "광주 북구 문화소통로 170",
        "phone": "1544-1122"
    },
    {
        "provider": "CGV",
        "code": "9999",
        "name": "CGV 광주첨단",
        "lat": 35.216298385383084,
        "lng": 126.85063812647967,
        "address": "광주 광산구 임방울대로826번길 29-31",
        "phone": "1544-1122"
    },
    {
        "provider": "CGV",
        "code": "9999",
        "name": "CGV 나주",
        "lat": 35.02398669508209,
        "lng": 126.79337418956125,
        "address": "전남 나주시 상야4길 16-16",
        "phone": "1544-1122"
    },
    {
        "provider": "LOTTE",
        "code": "9999",
        "name": "롯데시네마 광주광산",
        "lat": 35.159998188436866,
        "lng": 126.80963706974129,
        "address": "광주 광산구 무진대로 272-8",
        "phone": "1544-8855"
    },
    {
        "provider": "LOTTE",
        "code": "9999",
        "name": "롯데시네마 수완",
        "lat": 35.18882589953514,
        "lng": 126.81941305754681,
        "address": "광주 광산구 장신로 98",
        "phone": "1544-8855"
    },
    {
        "provider": "LOTTE",
        "code": "9999",
        "name": "롯데시네마 광주",
        "lat": 35.1545905578491,
        "lng": 126.91215169752114,
        "address": "광주 동구 독립로 268",
        "phone": "1544-8855"
    },
    {
        "provider": "LOTTE",
        "code": "9999",
        "name": "롯데시네마 충장로",
        "lat": 35.14820177705357,
        "lng": 126.91476382494136,
        "address": "광주 동구 충장로안길 12",
        "phone": "1544-8855"
    },
    {
        "provider": "LOTTE",
        "code": "9999",
        "name": "롯데시네마 광주첨단",
        "lat": 35.221165670239806,
        "lng": 126.84211116022182,
        "address": "광주 광산구 첨단중앙로182번길 8",
        "phone": "1544-8855"
    },
    {
        "provider": "MEGA",
        "code": "9999",
        "name": "메가박스 광주상무 별관",
        "lat": 35.15487238686724,
        "lng": 126.85394750240691,
        "address": "광주 서구 시청로60번길 21-9",
        "phone": "1544-0070"
    },
    {
        "provider": "MEGA",
        "code": "9999",
        "name": "메가박스 광주상무",
        "lat": 35.15419510098355,
        "lng": 126.85439319777181,
        "address": "광주 서구 시청로60번길 21-6",
        "phone": "1544-0070"
    },
    {
        "provider": "MEGA",
        "code": "9999",
        "name": "메가박스 광주하남점",
        "lat": 35.16273322070714,
        "lng": 126.81156687715828,
        "address": "광주 광산구 풍영철길로 15",
        "phone": "1544-0070"
    },
    {
        "provider": "MEGA",
        "code": "9999",
        "name": "메가박스 전대 광주",
        "lat": 35.172575584621015,
        "lng": 126.91244960370666,
        "address": "광주 북구 우치로 60",
        "phone": "1544-0070"
    },
    {
        "provider": "MEGA",
        "code": "9999",
        "name": "메가박스 첨단",
        "lat": 35.221421091121144,
        "lng": 126.85238068630491,
        "address": "광주 광산구 앰코로 35",
        "phone": "1544-0070"
    },
    {
        "provider": "ETC",
        "code": "9999",
        "name": "광주극장",
        "lat": 35.1499270370528,
        "lng": 126.912314740831,
        "address": "광주 동구 충장로46번길 10",
        "phone": ""
    },
    {
        "provider": "ETC",
        "code": "9999",
        "name": "제이씨네",
        "lat": 35.1726360524325,
        "lng": 126.91255601989,
        "address": "광주 북구 우치로 60",
        "phone": ""
    },
    {
        "provider": "ETC",
        "code": "9999",
        "name": "광주자동차극장",
        "lat": 35.2239640722571,
        "lng": 126.901399130841,
        "address": "광주 북구 생용동 90",
        "phone": "062-575-6263"
    },
    {
        "provider": "ETC",
        "code": "9999",
        "name": "화순시네마",
        "lat": 35.0582058050887,
        "lng": 126.985139790638,
        "address": "전남 화순군 화순읍 진각로 85",
        "phone": "061-373-7053"
    },
    {
        "provider": "CGV",
        "code": "9999",
        "name": "CGV 전주고사",
        "lat": 35.820385451413,
        "lng": 127.141957755984,
        "address": "전북특별자치도 전주시 완산구 전주객사3길 72",
        "phone": "1544-1122"
    },
    {
        "provider": "CGV",
        "code": "9999",
        "name": "CGV 전주효자",
        "lat": 35.80681867900588,
        "lng": 127.11600067786372,
        "address": "전북특별자치도 전주시 완산구 용머리로 45",
        "phone": "1544-1122"
    },
    {
        "provider": "CGV",
        "code": "9999",
        "name": "CGV 서전주",
        "lat": 35.81682250666464,
        "lng": 127.10644918999733,
        "address": "전북특별자치도 전주시 완산구 홍산로 260",
        "phone": "1544-1122"
    },
    {
        "provider": "CGV",
        "code": "9999",
        "name": "CGV 전주에코시티",
        "lat": 35.87325972337774,
        "lng": 127.12464045427252,
        "address": "전북특별자치도 전주시 덕진구 세병2길 10",
        "phone": "1544-1122"
    },
    {
        "provider": "LOTTE",
        "code": "9999",
        "name": "롯데시네마 전주",
        "lat": 35.83444556570581,
        "lng": 127.12181275902316,
        "address": "전북특별자치도 전주시 완산구 온고을로 2",
        "phone": "1544-8855"
    },
    {
        "provider": "LOTTE",
        "code": "9999",
        "name": "롯데시네마 전주평화",
        "lat": 35.79622961041377,
        "lng": 127.13268419152298,
        "address": "전북특별자치도 전주시 완산구 백제대로 10",
        "phone": "1544-8855"
    },
    {
        "provider": "LOTTE",
        "code": "9999",
        "name": "롯데시네마 전주송천",
        "lat": 35.867067367559066,
        "lng": 127.12096579959443,
        "address": "전북특별자치도 전주시 덕진구 송천중앙로 225",
        "phone": "1544-8855"
    },
    {
        "provider": "MEGA",
        "code": "9999",
        "name": "메가박스 전주객사",
        "lat": 35.8208844521117,
        "lng": 127.143724771485,
        "address": "전북특별자치도 전주시 완산구 전주객사4길 74-12",
        "phone": "1544-0070"
    },
    {
        "provider": "MEGA",
        "code": "9999",
        "name": "메가박스 전주혁신",
        "lat": 35.83932626774768,
        "lng": 127.05898973125528,
        "address": "전북특별자치도 전주시 덕진구 기지로 77",
        "phone": "1544-0070"
    },
    {
        "provider": "ETC",
        "code": "9999",
        "name": "전주조이앤시네마",
        "lat": 35.8208716910432,
        "lng": 127.142330437856,
        "address": "전북특별자치도 전주시 완산구 전주객사3길 74-25",
        "phone": "063-252-4323"
    },
    {
        "provider": "ETC",
        "code": "9999",
        "name": "전주시네마타운",
        "lat": 35.8200579675029,
        "lng": 127.14147027578,
        "address": "전북특별자치도 전주시 완산구 전주객사3길 67",
        "phone": "063-283-7722"
    },
    {
        "provider": "ETC",
        "code": "9999",
        "name": "완주휴시네마",
        "lat": 35.963324830644,
        "lng": 127.128018886203,
        "address": "전북특별자치도 완주군 봉동읍 둔산3로 94",
        "phone": "063-262-9012"
    },
    {
        "provider": "CGV",
        "code": "9999",
        "name": "CGV 아시아드",
        "lat": 35.19108874651817,
        "lng": 129.06371600203155,
        "address": "부산 연제구 종합운동장로 7",
        "phone": "1544-1122"
    },
    {
        "provider": "CGV",
        "code": "9999",
        "name": "CGV 서면상상마당",
        "lat": 35.1542730826014,
        "lng": 129.057501136005,
        "address": "부산 부산진구 서면로 39",
        "phone": "1544-1122"
    },
    {
        "provider": "CGV",
        "code": "9999",
        "name": "CGV 서면삼정타워",
        "lat": 35.1530135123952,
        "lng": 129.059606833427,
        "address": "부산 부산진구 중앙대로 672",
        "phone": "1544-1122"
    },
    {
        "provider": "CGV",
        "code": "9999",
        "name": "CGV 서면",
        "lat": 35.1492841347715,
        "lng": 129.063546082192,
        "address": "부산 부산진구 동천로 4",
        "phone": "1544-1122"
    },
    {
        "provider": "CGV",
        "code": "9999",
        "name": "CGV 동래",
        "lat": 35.22144319873245,
        "lng": 129.08553282565583,
        "address": "부산 동래구 중앙대로 1523",
        "phone": "1544-1122"
    },
    {
        "provider": "CGV",
        "code": "9999",
        "name": "CGV 씨네드쉐프 센텀",
        "lat": 35.1688180253412,
        "lng": 129.129522935807,
        "address": "부산 해운대구 센텀남대로 35",
        "phone": "1544-1122"
    },
    {
        "provider": "CGV",
        "code": "9999",
        "name": "CGV 대연",
        "lat": 35.13734403111797,
        "lng": 129.09903606988343,
        "address": "부산 남구 수영로 305",
        "phone": "1544-1122"
    },
    {
        "provider": "CGV",
        "code": "9999",
        "name": "CGV 해운대",
        "lat": 35.1628492113007,
        "lng": 129.15841084816,
        "address": "부산 해운대구 해운대로 620",
        "phone": "1544-1122"
    },
    {
        "provider": "CGV",
        "code": "9999",
        "name": "CGV 하단아트몰링",
        "lat": 35.106542058591174,
        "lng": 128.96635518623725,
        "address": "부산 사하구 낙동남로 1413",
        "phone": "1544-1122"
    },
    {
        "provider": "CGV",
        "code": "9999",
        "name": "CGV DRIVE IN 영도",
        "lat": 35.06228688953221,
        "lng": 129.08342850751177,
        "address": "부산 영도구 동삼동 1009",
        "phone": "1544-1122"
    },
    {
        "provider": "CGV",
        "code": "9999",
        "name": "CGV 정관",
        "lat": 35.32141439118125,
        "lng": 129.1783894302213,
        "address": "부산 기장군 정관읍 정관중앙로 45",
        "phone": "1544-1122"
    },
    {
        "provider": "CGV",
        "code": "9999",
        "name": "CGV 부산명지",
        "lat": 35.09441466204187,
        "lng": 128.90347463269617,
        "address": "부산 강서구 명지국제8로10번길 38",
        "phone": "1544-1122"
    },
    {
        "provider": "LOTTE",
        "code": "9999",
        "name": "롯데시네마 부산본점",
        "lat": 35.156809095509566,
        "lng": 129.05669705689388,
        "address": "부산 부산진구 가야대로 772",
        "phone": "1544-8855"
    },
    {
        "provider": "LOTTE",
        "code": "9999",
        "name": "롯데시네마 동래",
        "lat": 35.2119264071584,
        "lng": 129.077186974597,
        "address": "부산 동래구 중앙대로 1393",
        "phone": "1544-8855"
    },
    {
        "provider": "LOTTE",
        "code": "9999",
        "name": "롯데시네마 센텀시티",
        "lat": 35.1700886998078,
        "lng": 129.131056295592,
        "address": "부산 해운대구 센텀남대로 59",
        "phone": "1544-8855"
    },
    {
        "provider": "LOTTE",
        "code": "9999",
        "name": "롯데시네마 오투",
        "lat": 35.22832659264218,
        "lng": 129.08979120899696,
        "address": "부산 금정구 중앙대로 1607",
        "phone": "1544-8855"
    },
    {
        "provider": "LOTTE",
        "code": "9999",
        "name": "롯데시네마 프리미엄해운대",
        "lat": 35.1692602223522,
        "lng": 129.176617701041,
        "address": "부산 해운대구 해운대로 802",
        "phone": "1544-8855"
    },
    {
        "provider": "LOTTE",
        "code": "9999",
        "name": "롯데시네마 광복",
        "lat": 35.09791148743922,
        "lng": 129.03631364483445,
        "address": "부산 중구 중앙대로 2",
        "phone": "1544-8855"
    },
    {
        "provider": "LOTTE",
        "code": "9999",
        "name": "롯데시네마 동부산아울렛",
        "lat": 35.19226345029666,
        "lng": 129.2112753649879,
        "address": "부산 기장군 기장읍 기장해안로 147",
        "phone": "1544-8855"
    },
    {
        "provider": "LOTTE",
        "code": "9999",
        "name": "롯데시네마 부산장림",
        "lat": 35.0809534504827,
        "lng": 128.975738931366,
        "address": "부산 사하구 장림번영로 97",
        "phone": "1544-8855"
    },
    {
        "provider": "LOTTE",
        "code": "9999",
        "name": "롯데시네마 양산물금",
        "lat": 35.3180108325095,
        "lng": 129.00189650214,
        "address": "경남 양산시 물금읍 백호로 68",
        "phone": "1544-8855"
    },
    {
        "provider": "LOTTE",
        "code": "9999",
        "name": "롯데시네마 부산명지",
        "lat": 35.09292586956437,
        "lng": 128.91097822541363,
        "address": "부산 강서구 명지국제6로 107",
        "phone": "1544-8855"
    },
    {
        "provider": "LOTTE",
        "code": "9999",
        "name": "롯데시네마 김해부원",
        "lat": 35.22592667385766,
        "lng": 128.8841616571308,
        "address": "경남 김해시 김해대로 2352",
        "phone": "1544-8855"
    },
    {
        "provider": "MEGA",
        "code": "9999",
        "name": "메가박스 서면대한",
        "lat": 35.1542168115447,
        "lng": 129.060122157186,
        "address": "부산 부산진구 중앙대로692번길 16",
        "phone": "1544-0070"
    },
    {
        "provider": "MEGA",
        "code": "9999",
        "name": "메가박스 부산대",
        "lat": 35.2301073652934,
        "lng": 129.088114804872,
        "address": "부산 금정구 장전로12번길 55",
        "phone": "1544-0070"
    },
    {
        "provider": "MEGA",
        "code": "9999",
        "name": "메가박스 덕천",
        "lat": 35.211107524034105,
        "lng": 129.0075908781937,
        "address": "부산 북구 만덕대로 23",
        "phone": "1544-0070"
    },
    {
        "provider": "MEGA",
        "code": "9999",
        "name": "메가박스 화명",
        "lat": 35.2347357680192,
        "lng": 129.009886537236,
        "address": "부산 북구 화명대로 16",
        "phone": "1544-0070"
    },
    {
        "provider": "MEGA",
        "code": "9999",
        "name": "메가박스 사상",
        "lat": 35.16295130693137,
        "lng": 128.9837782340367,
        "address": "부산 사상구 사상로 201",
        "phone": "1544-0070"
    },
    {
        "provider": "MEGA",
        "code": "9999",
        "name": "메가박스 해운대 장산",
        "lat": 35.1705356884182,
        "lng": 129.177048982455,
        "address": "부산 해운대구 해운대로 813",
        "phone": "1544-0070"
    },
    {
        "provider": "MEGA",
        "code": "9999",
        "name": "메가박스 부산극장",
        "lat": 35.098615932864455,
        "lng": 129.02869943089325,
        "address": "부산 중구 비프광장로 36",
        "phone": "1544-0070"
    },
    {
        "provider": "MEGA",
        "code": "9999",
        "name": "메가박스 양산증산",
        "lat": 35.30987629474474,
        "lng": 129.0093816715281,
        "address": "경남 양산시 물금읍 증산역로 177",
        "phone": "1544-0070"
    },
    {
        "provider": "MEGA",
        "code": "9999",
        "name": "메가박스 정관(휴관)",
        "lat": 35.319438877769,
        "lng": 129.1783540136777,
        "address": "부산 기장군 정관읍 정관6로 39",
        "phone": "1544-0070"
    },
    {
        "provider": "MEGA",
        "code": "9999",
        "name": "메가박스 양산",
        "lat": 35.33827346791238,
        "lng": 129.0269097796005,
        "address": "경남 양산시 강변로 440",
        "phone": "1544-0070"
    },
    {
        "provider": "ETC",
        "code": "9999",
        "name": "영화의전당 소극장",
        "lat": 35.171672354679444,
        "lng": 129.12729598978362,
        "address": "부산 해운대구 수영강변대로 120",
        "phone": ""
    },
    {
        "provider": "ETC",
        "code": "9999",
        "name": "영화의전당 시네마테크",
        "lat": 35.17116956200712,
        "lng": 129.12719070076358,
        "address": "부산 해운대구 수영강변대로 120",
        "phone": ""
    },
    {
        "provider": "ETC",
        "code": "9999",
        "name": "인생극장실버영화관",
        "lat": 35.14371123639423,
        "lng": 129.10896600772725,
        "address": "부산 수영구 수영로 421-1",
        "phone": ""
    },
    {
        "provider": "ETC",
        "code": "9999",
        "name": "추억의이바구씨네마무료극장",
        "lat": 35.129118996078034,
        "lng": 129.04466585939136,
        "address": "부산 동구 구청로 8",
        "phone": ""
    },
    {
        "provider": "ETC",
        "code": "9999",
        "name": "아세아극장",
        "lat": 35.20655160785002,
        "lng": 128.9971094418639,
        "address": "부산 북구 낙동대로 1704",
        "phone": "051-332-8307"
    },
    {
        "provider": "ETC",
        "code": "9999",
        "name": "모퉁이극장",
        "lat": 35.100599512348275,
        "lng": 129.0309000045889,
        "address": "부산 중구 광복중앙로 13",
        "phone": "051-256-1895"
    },
    {
        "provider": "CGV",
        "code": "9999",
        "name": "CGV 대구한일",
        "lat": 35.8706343384139,
        "lng": 128.595289276938,
        "address": "대구 중구 동성로 39",
        "phone": "1544-1122"
    },
    {
        "provider": "CGV",
        "code": "9999",
        "name": "CGV 대구현대",
        "lat": 35.866728762973345,
        "lng": 128.59114681941602,
        "address": "대구 중구 달구벌대로 2077",
        "phone": "1544-1122"
    },
    {
        "provider": "CGV",
        "code": "9999",
        "name": "CGV 대구",
        "lat": 35.88523645774041,
        "lng": 128.5897840332514,
        "address": "대구 북구 침산로 93",
        "phone": "1544-1122"
    },
    {
        "provider": "CGV",
        "code": "9999",
        "name": "CGV 대구죽전",
        "lat": 35.85057582188606,
        "lng": 128.5364507656275,
        "address": "대구 달서구 달구벌대로 1551",
        "phone": "1544-1122"
    },
    {
        "provider": "CGV",
        "code": "9999",
        "name": "CGV 대구연경",
        "lat": 35.941454447405484,
        "lng": 128.6228681865681,
        "address": "대구 북구 동화천로 290",
        "phone": "1544-1122"
    },
    {
        "provider": "CGV",
        "code": "9999",
        "name": "CGV 대구월성",
        "lat": 35.8245670294031,
        "lng": 128.52680714189017,
        "address": "대구 달서구 조암로 29",
        "phone": "1544-1122"
    },
    {
        "provider": "CGV",
        "code": "9999",
        "name": "CGV 대구스타디움",
        "lat": 35.831408461933066,
        "lng": 128.6867983576696,
        "address": "대구 수성구 유니버시아드로 140",
        "phone": "1544-1122"
    },
    {
        "provider": "CGV",
        "code": "9999",
        "name": "CGV 경산",
        "lat": 35.83306434734083,
        "lng": 128.73666956716002,
        "address": "경북 경산시 대학로28길 6-5",
        "phone": "1544-1122"
    },
    {
        "provider": "LOTTE",
        "code": "9999",
        "name": "롯데시네마 동성로",
        "lat": 35.870251388489265,
        "lng": 128.59677846197562,
        "address": "대구 중구 동성로2길 95",
        "phone": "1544-8855"
    },
    {
        "provider": "LOTTE",
        "code": "9999",
        "name": "롯데시네마 대구광장",
        "lat": 35.85570044812638,
        "lng": 128.55070538170642,
        "address": "대구 서구 달구벌대로 1691",
        "phone": "1544-8855"
    },
    {
        "provider": "LOTTE",
        "code": "9999",
        "name": "롯데시네마 대구율하",
        "lat": 35.8687699659134,
        "lng": 128.692780159755,
        "address": "대구 동구 안심로 80",
        "phone": "1544-8855"
    },
    {
        "provider": "LOTTE",
        "code": "9999",
        "name": "롯데시네마 상인",
        "lat": 35.816485615446695,
        "lng": 128.53922671489406,
        "address": "대구 달서구 월곡로 247",
        "phone": "1544-8855"
    },
    {
        "provider": "LOTTE",
        "code": "9999",
        "name": "롯데시네마 프리미엄칠곡",
        "lat": 35.94209429454404,
        "lng": 128.56381688427527,
        "address": "대구 북구 학정로 422",
        "phone": "1544-8855"
    },
    {
        "provider": "LOTTE",
        "code": "9999",
        "name": "롯데시네마 성서",
        "lat": 35.85437755145073,
        "lng": 128.50773597871708,
        "address": "대구 달서구 성서로 414",
        "phone": "1544-8855"
    },
    {
        "provider": "MEGA",
        "code": "9999",
        "name": "메가박스 대구프리미엄만경관",
        "lat": 35.87088822082138,
        "lng": 128.59041512804245,
        "address": "대구 중구 국채보상로 547",
        "phone": "1544-0070"
    },
    {
        "provider": "MEGA",
        "code": "9999",
        "name": "메가박스 대구신세계",
        "lat": 35.8777273803805,
        "lng": 128.629707500549,
        "address": "대구 동구 동부로 149",
        "phone": "1544-0070"
    },
    {
        "provider": "MEGA",
        "code": "9999",
        "name": "메가박스 대구이시아",
        "lat": 35.92052642817447,
        "lng": 128.6356270818311,
        "address": "대구 동구 팔공로49길 51",
        "phone": "1544-0070"
    },
    {
        "provider": "MEGA",
        "code": "9999",
        "name": "메가박스 북대구",
        "lat": 35.94408149473025,
        "lng": 128.56172611845992,
        "address": "대구 북구 동암로 100",
        "phone": "1544-0070"
    },
    {
        "provider": "MEGA",
        "code": "9999",
        "name": "메가박스 대구세븐밸리",
        "lat": 35.944157981777,
        "lng": 128.560349042774,
        "address": "대구 북구 동암로 90",
        "phone": "1544-0070"
    },
    {
        "provider": "ETC",
        "code": "9999",
        "name": "가고파극장",
        "lat": 35.8734870167902,
        "lng": 128.595993076886,
        "address": "대구 중구 동성로 76",
        "phone": "053-255-1332"
    },
    {
        "provider": "ETC",
        "code": "9999",
        "name": "오오극장",
        "lat": 35.8706649167601,
        "lng": 128.589448547683,
        "address": "대구 중구 국채보상로 537",
        "phone": "053-425-3553"
    },
    {
        "provider": "ETC",
        "code": "9999",
        "name": "씨네팔공산",
        "lat": 35.9870189664405,
        "lng": 128.693653357104,
        "address": "대구 동구 용수동 50-13",
        "phone": "053-985-5080"
    },
    {
        "provider": "ETC",
        "code": "9999",
        "name": "씨네80",
        "lat": 35.9878837646826,
        "lng": 128.694310498626,
        "address": "대구 동구 팔공산로 1184",
        "phone": "053-984-8008"
    },
    {
        "provider": "CGV",
        "code": "9999",
        "name": "CGV 울산성남",
        "lat": 35.55622874245462,
        "lng": 129.3213268939242,
        "address": "울산 중구 중앙길 145",
        "phone": "1544-1122"
    },
    {
        "provider": "CGV",
        "code": "9999",
        "name": "CGV 울산삼산",
        "lat": 35.5412348457262,
        "lng": 129.338911787136,
        "address": "울산 남구 화합로 185",
        "phone": "1544-1122"
    },
    {
        "provider": "CGV",
        "code": "9999",
        "name": "CGV 울산진장",
        "lat": 35.57584630163453,
        "lng": 129.35592357630358,
        "address": "울산 북구 진장유통로 51-10",
        "phone": "1544-1122"
    },
    {
        "provider": "CGV",
        "code": "9999",
        "name": "CGV 울산신천",
        "lat": 35.634998630668406,
        "lng": 129.35576074504803,
        "address": "울산 북구 매산1로 17",
        "phone": "1544-1122"
    },
    {
        "provider": "CGV",
        "code": "9999",
        "name": "CGV 울산동구",
        "lat": 35.48982790644419,
        "lng": 129.43106709817926,
        "address": "울산 동구 등대로 50",
        "phone": "1544-1122"
    },
    {
        "provider": "CGV",
        "code": "9999",
        "name": "CGV 양산삼호",
        "lat": 35.4138256354959,
        "lng": 129.16775400575,
        "address": "경남 양산시 삼호1길 42",
        "phone": "1544-1122"
    },
    {
        "provider": "LOTTE",
        "code": "9999",
        "name": "롯데시네마 울산성남",
        "lat": 35.553200873697335,
        "lng": 129.32050080833818,
        "address": "울산 중구 젊음의2거리 33",
        "phone": "1544-8855"
    },
    {
        "provider": "LOTTE",
        "code": "9999",
        "name": "롯데시네마 울산",
        "lat": 35.538039961084095,
        "lng": 129.3382479440755,
        "address": "울산 남구 삼산로 288",
        "phone": "1544-8855"
    },
    {
        "provider": "MEGA",
        "code": "9999",
        "name": "메가박스 울산",
        "lat": 35.5543600679399,
        "lng": 129.32108664817,
        "address": "울산 중구 젊음의거리 73",
        "phone": "1544-0070"
    },
    {
        "provider": "ETC",
        "code": "9999",
        "name": "시네마in선암",
        "lat": 35.5146588588162,
        "lng": 129.318814203893,
        "address": "울산 남구 선암호수길 150",
        "phone": ""
    },
    {
        "provider": "ETC",
        "code": "9999",
        "name": "울주시네마",
        "lat": 35.5736097240796,
        "lng": 129.244402652309,
        "address": "울산 울주군 범서읍 대리로 15-20",
        "phone": "052-229-9240"
    },
    {
        "provider": "ETC",
        "code": "9999",
        "name": "범서온천자동차극장",
        "lat": 35.62572659287,
        "lng": 129.221959870676,
        "address": "울산 울주군 범서읍 두동로 704",
        "phone": "052-246-1245"
    },
    {
        "provider": "ETC",
        "code": "9999",
        "name": "블루마씨네",
        "lat": 35.64033764381414,
        "lng": 129.43133401633386,
        "address": "울산 북구 산하동 166-1",
        "phone": "052-298-6622"
    },
    {
        "provider": "CGV",
        "code": "9999",
        "name": "CGV 제주",
        "lat": 33.50008571867441,
        "lng": 126.52729611982268,
        "address": "제주특별자치도 제주시 서광로 288",
        "phone": "1544-1122"
    },
    {
        "provider": "CGV",
        "code": "9999",
        "name": "CGV 제주노형",
        "lat": 33.4858351583049,
        "lng": 126.478311291333,
        "address": "제주특별자치도 제주시 노형로 407",
        "phone": "1544-1122"
    },
    {
        "provider": "LOTTE",
        "code": "9999",
        "name": "롯데시네마 제주연동",
        "lat": 33.4807442976278,
        "lng": 126.494736524528,
        "address": "제주특별자치도 제주시 과원로 128",
        "phone": "1544-8855"
    },
    {
        "provider": "MEGA",
        "code": "9999",
        "name": "메가박스 제주아라",
        "lat": 33.4838282919914,
        "lng": 126.535912436504,
        "address": "제주특별자치도 제주시 구산로 4",
        "phone": "1544-0070"
    },
    {
        "provider": "MEGA",
        "code": "9999",
        "name": "메가박스 제주삼화",
        "lat": 33.5204896371434,
        "lng": 126.588154957525,
        "address": "제주특별자치도 제주시 삼봉로 11",
        "phone": "1544-0070"
    },
    {
        "provider": "ETC",
        "code": "9999",
        "name": "제주자동차극장",
        "lat": 33.4957991555872,
        "lng": 126.467202192963,
        "address": "제주특별자치도 제주시 도공로 136",
        "phone": "064-748-8058"
    }
]